s2id,latitude,longitude,label,sublabel,iso3
915aa997,-18.47222222222222,-70.31611111111111,CALETA ARICA,,CHL
91500745,-18.51944444444444,-70.31861111111111,CALETA QUIANE,,CHL
91502d3d,-19.20611111111111,-70.27083333333333,CALETA CAMARONES,,CHL
915216b3,-20.200958333333332,-70.1452388888889,BAHÍA EL COLORADO,,CHL
96a53bc9,-24.798194444444444,-70.18627777777778,CÁÑAMO,,CHL
91526265,-20.6605,-70.18297222222223,CARAMUCHO,,CHL
9152922d,-20.894416666666665,-70.13680555555557,CHANAVAYA,,CHL
915289b3,-20.706222222222223,-70.19319444444444,CHANAVAYITA,,CHL
9152b5eb,-21.321527777777774,-70.07094444444444,CHIPANA,,CHL
91526ec1,-20.42286111111111,-70.16472222222222,LOS VERDES,,CHL
915213f5,-20.234383333333337,-70.15104166666667,MUELLE CALETA CAVANCHA,,CHL
91521151,-20.204366666666665,-70.15313055555556,MUELLE CALETA RIQUELME,,CHL
91526c9b,-20.33811111111111,-70.15394444444445,PLAYA BLANCA,,CHL
91521145,-20.204366666666665,-70.1591138888889,PUERTO IQUIQUE,,CHL
91529663,-20.996,-70.16247222222223,RÍO SECO,,CHL
9152bec7,-21.108583333333335,-70.12049999999999,SAN MARCOS,,CHL
96ad8ded,-22.438980555555556,-70.25659722222223,CALETA BUENA,,CHL
96adf2f5,-22.550722222222223,-70.26761111111111,CALETA COBIJA,,CHL
96ad485d,-21.55281388888889,-70.08886388888888,CALETA HUACHÁN,,CHL
96ad8fdd,-22.34975,-70.251,CALETA INDÍGENA,,CHL
96ad6ef3,-21.89685555555555,-70.17318611111112,CALETA PAQUICA,,CHL
96ad421d,-21.749691666666667,-70.15127222222223,CALETA URCU,,CHL
96adf1c7,-22.632080555555557,-70.26346944444444,EL FIERRO,,CHL
96ad77a9,-22.092616666666665,-70.20440833333333,MUELLE TOCOPILLA,,CHL
96ad4685,-21.633691666666667,-70.13751388888889,PUNTA ARENAS,,CHL
96ad852b,-22.281527777777775,-70.24247222222222,PUNTA ATALA,,CHL
96adfbbd,-22.760791666666663,-70.30416388888888,CALETA GUALAGUALA,,CHL
96ae0705,-22.918772222222223,-70.29653611111111,CALETA HORNITOS,,CHL
96adfaf5,-22.72108611111111,-70.284275,CALETA MICHILLA,,CHL
96ae1d59,-23.093152777777775,-70.42601388888889,CORPESCA MEJILLONES,,CHL
96b1e2b9,-23.098374999999997,-70.45055555555555,MUELLE MEJILLONES,,CHL
96b1d12d,-23.5132,-70.53147777777778,CALETA ABTAO (JUAN LÓPEZ),,CHL
96afd53d,-23.64101944444445,-70.39830555555557,CALETA ANTOFAGASTA,,CHL
96baa9df,-24.37405,-70.55044722222222,CALETA BLANCO ENCALADA,,CHL
96b02669,-23.852341666666668,-70.50836944444444,CALETA BOLFIN,,CHL
96baaef1,-24.503511111111113,-70.56098055555556,CALETA BOTIJA,,CHL
96b029b1,-23.75963888888889,-70.46326111111111,CALETA COLOSO,,CHL
96b1db19,-23.412197222222225,-70.59426388888889,CALETA CONSTITUCIÓN,,CHL
96ae2a41,-23.555683333333334,-70.40571666666668,CALETA LA CHIMBA,,CHL
96b00477,-24.245722222222224,-70.5270861111111,EL COBRE,,CHL
96afd515,-23.648169444444445,-70.40464444444444,PUERTO ANTOFAGASTA,,CHL
96bb4537,-25.65216388888889,-70.64630277777779,CALETA CIFUNCHO,,CHL
96bad485,-25.008758333333333,-70.46877222222223,CALETA PAPOSO,,CHL
96bca71f,-25.888716666666667,-70.69040555555556,HUANILLO,,CHL
96bab12d,-24.645919444444445,-70.5625,LA COLORADA,,CHL
96bb344d,-25.40771111111111,-70.49178055555555,MUELLE TALTAL,,CHL
96bab7cb,-24.72053888888889,-70.57879444444444,PUNTA PLATA,,CHL
96bcc56f,-26.35450555555556,-70.63361944444445,CALETA CHAÑARAL ,,CHL
96bcc649,-26.259541666666667,-70.64860833333334,EL REFUGIO,,CHL
96bd2761,-26.575675,-70.68858888888889,FLAMENCO,,CHL
96bd2739,-26.60484166666667,-70.70410277777778,TOREES DEL INCA,,CHL
96bcdbc3,-26.471330555555554,-70.68921666666667,LOS MEDANOS,,CHL
96bcd967,-26.490291666666668,-70.69101111111111,LOS TOYOS,,CHL
96bcb9a3,-26.140888888888888,-70.66243055555556,PAN DE AZÚCAR,,CHL
96bcd93b,-26.5159,-70.70471388888889,PORTO FINO,,CHL
9697c6d9,-27.642722222222226,-70.91950277777778,BAHÍA SALADA,,CHL
9697c34d,-27.51225833333333,-70.8947,BARRANQUILLA,,CHL
96bd69e7,-27.064469444444445,-70.82219722222221,CALDERA,,CHL
9697c80d,-27.686805555555555,-71.01046388888889,CHASCO,,CHL
9697d96b,-27.402827777777777,-70.93218333333334,CUEVA DE PEREZ,,CHL
96bd637d,-27.248230555555555,-70.96117222222223,EL CISNE,,CHL
96bd3d13,-26.799597222222225,-70.78435,EL MORADO,,CHL
96bd6f0f,-27.124808333333338,-70.94378888888889,EL MORRO,,CHL
96bd2137,-26.644155555555557,-70.72414444444445,LAS LISAS,,CHL
9697d911,-27.39136111111111,-70.94178611111111,LOZAS AMARILLAS,,CHL
9697c135,-27.627044444444444,-70.90645,MALDONADO,,CHL
96bd2335,-26.762516666666667,-70.74609722222222,OBISPITO,,CHL
9697b7b7,-27.733697222222226,-71.04092222222222,PAJONALES,,CHL
9697d89d,-27.33492222222222,-70.94140555555556,PUERTO VIEJO,,CHL
96bd15e5,-26.87425,-70.82434444444443,PUNTA CABEZA DE VACA,,CHL
96bd41db,-27.01043611111111,-70.8049861111111,RAMADA,,CHL
96bd4007,-26.954380555555556,-70.80084166666667,SANTUARIO DE LA NATURALEZA,,CHL
96bd3df9,-26.85336388888889,-70.81036388888889,ZENTENO,,CHL
9697b167,-27.830158333333333,-71.0913361111111,TOTORAL,,CHL
9697ac5b,-27.964655555555556,-71.13772222222222,LA SAL,,CHL
9697b207,-27.895119444444443,-71.10779444444444,LAS GAVIOTAS,,CHL
9697adf1,-27.907891666666664,-71.11369166666667,LOS BURROS,,CHL
9696ccab,-28.850161111111113,-71.47656388888889,BASCUÑAN,,CHL
96913421,-28.942319444444443,-71.50622777777778,CALETA AGUA DE LA ZORRA,,CHL
96913bfb,-29.114225,-71.4675,CALETA CARRIZALILLO O MAMANI,,CHL
9691399d,-29.07774722222222,-71.49113888888888,CALETA CHAÑARAL DE ACEITUNO,,CHL
9696d11f,-28.698141666666668,-71.31510833333333,CALETA LA PEÑA,,CHL
9696d9ff,-28.643277777777776,-71.28418333333333,CALETA LOS BRONCES,,CHL
9691344f,-28.91498888888889,-71.51454166666667,CALETA LOS BURROS SUR,,CHL
9696cd1f,-28.818991666666665,-71.42664722222223,ENSUEÑO - SARCO,,CHL
9696d1f5,-28.744525,-71.36172499999999,LA CHÉPICA,,CHL
969134f3,-28.895675,-71.50514722222222,LA REINA,,CHL
9691398b,-29.055369444444445,-71.47895555555556,LA TIFUCA,,CHL
969136f1,-28.98128611111111,-71.51809166666666,LAS TETILLAS,,CHL
96971d67,-28.298625,-71.185675,CALETA  PUNTA LOBOS,,CHL
969702b7,-28.260625,-71.17098611111112,CALETA ANGOSTA,,CHL
9696dfd9,-28.460638888888887,-71.22442777777778,CALETA HUASCO,,CHL
9697aa87,-28.079894444444445,-71.14876666666667,CARRIZAL BAJO,,CHL
9697ac7d,-27.989275,-71.14271944444445,CORRALES NORTE,,CHL
9696d953,-28.5565,-71.28063888888889,LOS LACHOS,,CHL
96970193,-28.164588888888886,-71.16508055555556,LOS POZOS,,CHL
9696dbf1,-28.568716666666667,-71.30294722222222,PUNTA ALCALDE,,CHL
968eca6d,-31.647269444444444,-71.55758333333333,HUENTELAUQUEN,,CHL
968e9397,-31.26417222222222,-71.63257222222222,MAITENCILLO,,CHL
968ec78b,-31.51141944444445,-71.56975833333333,PUERTO MANSO,,CHL
968ebf6d,-31.4231,-71.59298333333332,PUERTO OSCURO,,CHL
9691d979,-30.1941,-71.4308638888889,GUANAQUEROS,,CHL
9691c8ef,-29.96745,-71.35058333333333,GUAYACAN,,CHL
9691c9ad,-29.94119166666667,-71.33491666666666,MUELLE  COQUIMBO II,,CHL
9691c88d,-29.96373611111111,-71.36207222222221,MUELLE ORIZON COQUIMBO,,CHL
9691df17,-30.256080555555556,-71.5045638888889,MUELLE ORIZON TONGOY,,CHL
9691c8ff,-29.95305,-71.33545555555555,COQUIMBO & MUELLE AIP & MUELLE BRACPESCA & MUELLE PESCABEL 2,,CHL
9691c971,-29.95276388888889,-71.300375,PEÑUELAS,,CHL
9691c903,-29.959491666666665,-71.33250833333332,PLAYA CHANGA,,CHL
9691c8bd,-29.983525,-71.365825,PLAYA CHICA DE LA HERRADURA,,CHL
9691e02f,-30.292075,-71.60836666666665,PUERTO ALDEA (HORNILLA),,CHL
9691c855,-29.948025,-71.33515,TERMINAL PUERTO COQUIMBO,,CHL
9691df3d,-30.256138888888888,-71.49914166666667,TONGOY,,CHL
9691cff5,-30.072991666666667,-71.37774722222221,TOTORALILLO CENTRO,,CHL
96910419,-29.45080555555555,-71.30927777777778,CHUNGUNGO,,CHL
96913e6d,-29.187216666666668,-71.495025,EL APOLILLADO,,CHL
9691a957,-29.622558333333338,-71.28865277777777,HORNOS,,CHL
96911a41,-29.311258333333335,-71.35439166666666,LOS CHOROS (CHOREADERO),,CHL
9691167b,-29.24671388888889,-71.46761111111111,PUNTA CHOROS A (SAN AGUSTIN),,CHL
96911663,-29.24996666666667,-71.46245277777778,PUNTA CHOROS B (LOS CORRALES),,CHL
969106f7,-29.49096666666667,-71.33009722222222,TOTORALILLO NORTE,,CHL
9691b5e9,-29.878816666666665,-71.27356666666667,"SAN PEDRO, LA SERENA",,CHL
96893eb9,-31.978755555555555,-71.49899444444445,CASCABELES,,CHL
96893457,-31.75328888888889,-71.51803611111112,CHIGUALOCO,,CHL
9689393d,-31.948027777777774,-71.5114138888889,LA CACHINA,,CHL
968939b1,-31.91248055555555,-71.517475,LAS CONCHAS,,CHL
96891375,-32.168483333333334,-71.53006944444445,LOS POZOS,,CHL
968937a5,-31.85356666666667,-71.53184722222223,ÑAGUÉ,,CHL
96891489,-32.13606111111111,-71.52963611111112,PICHIDANGUI,,CHL
96893e2d,-32.05170555555555,-71.51908611111111,RIGO,,CHL
968939bb,-31.90914722222222,-71.50931944444444,"SAN PEDRO, LOS VILOS",,CHL
96893e4f,-32.02563611111111,-71.51343888888889,TOTORALILLO SUR,,CHL
968e1119,-30.54704166666667,-71.69677777777778,EL SAUCE,,CHL
968e61e3,-31.016708333333337,-71.65054444444445,LA CEBADA,,CHL
968e6c47,-30.735269444444445,-71.70051111111111,LIMARI,,CHL
968e1dd3,-30.35215555555556,-71.67506666666667,SAN LORENZO,,CHL
968e8c29,-31.14591111111111,-71.66273055555556,SIERRA,,CHL
968e6405,-30.928825,-71.67469722222222,TALCA,,CHL
968e1a6b,-30.476075,-71.69672222222222,TALCARUCA,,CHL
968e65c5,-30.877908333333338,-71.68163055555556,TALQUILLA,,CHL
968e1c29,-30.36733055555555,-71.67088055555556,TOTORAL,,CHL
96621161,-33.363480555555554,-71.67279444444445,ALGARROBO,,CHL
9662096b,-33.19383611111111,-71.68950555555556,QUINTAY,,CHL
9689c2cd,-32.92999722222222,-71.53869999999999,HIGUERILLAS,,CHL
9689c325,-32.9189,-71.51798611111111,SAN PEDRO-CONCÓN,,CHL
966216cd,-33.39434722222222,-71.69803611111111,EL QUISCO,,CHL
9947f207,-27.12712777777778,-109.27595277777776,HOTU ITI,,CHL
9947ee6f,-27.088288888888886,-109.2983,LAPEROUSE (MANGA HOONU),,CHL
9947fba5,-27.153566666666663,-109.43907222222222,MANGA PIKO,,CHL
9947fbab,-27.147105555555555,-109.43060277777778,MANGA ROA,,CHL
9947f08f,-27.165569444444444,-109.36404444444445,VAIHU,,CHL
9700ca53,-33.76337222222222,-80.75684722222222,ALEJANDRO SELKIRK,,CHL
96ffa2af,-33.63597222222222,-78.83048055555555,BAHÍA CUMBERLAND,,CHL
9727172b,-26.346533333333333,-79.87934444444444,SAN AMBROSIO,,CHL
9689a7bd,-32.41495,-71.41327777777778,LIGUA,,CHL
96890d8f,-32.238302777777776,-71.51200277777778,LOS MOLLES,,CHL
96890971,-32.34554722222222,-71.46003055555556,PICHICUY,,CHL
9689a43f,-32.50574722222222,-71.44976944444444,PAPUDO,,CHL
9689bed9,-32.70895,-71.48992222222222,HORCÓN,,CHL
9689bbd1,-32.648855555555556,-71.44005,MAITENCILLO,,CHL
9689bf45,-32.74081944444445,-71.4905888888889,VENTANA,,CHL
9689c07d,-32.767630555555556,-71.52597777777778,EL MANZANO,,CHL
9689c0ed,-32.78245277777778,-71.50804166666667,LONCURA,,CHL
9689c05d,-32.78389166666666,-71.53618333333333,PAPAGAYO,,CHL
9689c061,-32.77755555555555,-71.52527222222223,EL EMBARCADERO & MUELLE ASIMAR & MUELLE PESQUERA QUINTERO,,CHL
96623f2b,-33.55098888888889,-71.614425,CARTAGENA,,CHL
966239b5,-33.61921666666667,-71.62268055555555,DESEMBOCADURA RÍO MAIPO,,CHL
96623855,-33.60266666666667,-71.61426666666667,MOLITO,,CHL
966238e1,-33.58144166666667,-71.61803333333333,MUELLE CAMANCHACA,,CHL
966238fb,-33.58746388888889,-71.61371944444444,PUERTECITO,,CHL
966238e3,-33.58151388888889,-71.61484722222221,SAN PEDRO - PACHECO ALTAMIRANO,,CHL
9689e6c5,-33.022105555555555,-71.6326111111111,EL MEMBRILLO,,CHL
9689e223,-33.10297222222222,-71.67568055555556,LAGUNA VERDE,,CHL
9689e0b5,-33.031325,-71.59069722222222,PORTALES,,CHL
9689dd41,-32.956833333333336,-71.54988888888889,MONTEMAR,,CHL
9689a497,-32.553,-71.46493333333333,ZAPALLAR,,CHL
96616181,-34.13061944444444,-71.99470277777777,TOPOCALMA,,CHL
9663d3ef,-33.92294444444444,-71.84418888888888,BOCA DE RAPEL,,CHL
9663d775,-34.00921666666667,-71.900075,CHORRILLOS,,CHL
9663d231,-33.915549999999996,-71.80218055555555,LA VEGA DE LA BOCA,,CHL
9663d6c1,-33.96239166666667,-71.87688333333332,MATANZAS,,CHL
9661627b,-34.08878611111111,-71.96182777777778,PUERTECILLO,,CHL
96615421,-34.47968055555556,-72.01768888888888,CÁHUIL,,CHL
966159db,-34.38305555555556,-72.01441944444444,PICHILEMU,,CHL
9666abf7,-34.64002222222222,-72.04438611111111,BUCALEMU,,CHL
96664fc3,-35.51161944444444,-72.54955277777778,EL PARRON,,CHL
96665abb,-35.47510555555556,-72.50509722222222,LOS PELLINES,,CHL
9666591d,-35.356500000000004,-72.45649166666666,MAGUILLINES,,CHL
96668e15,-35.12468333333334,-72.216325,PUTU ,,CHL
96665f19,-35.337744444444446,-72.39875,RIO MAULE,,CHL
966691d7,-35.10005833333334,-72.19604166666667,LA TRINCHERA,,CHL
96664c05,-35.58346944444445,-72.62214999999999,LOANCO,,CHL
9666bd1f,-34.88531666666667,-72.16547222222223,DUAO,,CHL
96669705,-34.98278055555556,-72.18171666666667,LA PESCA,,CHL
9666bcdf,-34.88373055555555,-72.1615388888889,PICHIBUDI,,CHL
96662d13,-35.87761944444444,-72.67607500000001,CARDONAL,,CHL
9666320d,-35.84266388888889,-72.63840833333335,CURANIPE,,CHL
966631bf,-35.81592222222222,-72.58624166666667,PELLUHUE,,CHL
9666a92d,-34.686274999999995,-72.04651388888888,BOYERUCA,,CHL
9666a585,-34.75405,-72.0833611111111,LLICO,,CHL
96687f29,-36.078988888888894,-72.7949,BUCHUPUREO,,CHL
96687c17,-36.13506111111111,-72.7821111111111,COBQUECURA,,CHL
96687b7b,-36.180388888888885,-72.81438333333332,TAUCÚ,,CHL
966844af,-36.48523055555555,-72.90734444444445,BURCA,,CHL
96685d1f,-36.42903611111111,-72.87365277777778,PERALES,,CHL
9669e5af,-37.24113055555556,-73.31500833333332,ARAUCO,,CHL
9669e961,-37.16623055555556,-73.18659444444445,LARAQUETE,,CHL
9669e25d,-37.25848055555556,-73.4371388888889,LAS PEÑAS,,CHL
96420c83,-37.19423333333333,-73.562825,LLICO,,CHL
9642120b,-37.23501111111111,-73.65384444444445,LOS PIURES,,CHL
9669e21f,-37.23066666666667,-73.4461,MUELLE ARTESANAL DE TUBUL,,CHL
96427347,-37.149205555555554,-73.57963888888888,PUNTA LAVAPIÉ,,CHL
96420d2f,-37.17574444444444,-73.61425555555554,RUMENA,,CHL
96421ac9,-37.36452777777778,-73.66110555555557,YANA,,CHL
966a7f77,-38.09628055555556,-73.44961944444445,ANTIQUINA,,CHL
9641d7ef,-37.98818611111111,-73.47777222222223,HUENTELOLÉN,,CHL
9669c137,-37.02450833333333,-73.15802777777779,CALETA LO ROJAS,,CHL
9669c41d,-37.00779166666667,-73.18568611111111,MAULE,,CHL
9669c11b,-37.04499722222222,-73.14514444444445,PLAYA SUR,,CHL
964279d9,-36.98246666666667,-73.52740833333333,PUERTO NORTE I. SANTA MARÍA,,CHL
9642765f,-37.045425,-73.51036388888889,PUERTO SUR I. SANTA MARÍA,,CHL
96683333,-36.77397222222222,-73.21196944444445,CHOME,,CHL
966834ad,-36.76674166666667,-73.17164166666667,LENGA,,CHL
96683345,-36.761225,-73.19528333333334,PERONÉ,,CHL
964048dd,-38.33265555555556,-73.91753333333334,ISLA MOCHA,,CHL
96404681,-38.411988888888885,-73.93467777777778,ISLOTE DEL TRABAJO (ISLA MOCHA),,CHL
9640488f,-38.3527,-73.8962638888889,LA CALERA (ISLA MOCHA),,CHL
964048e9,-38.3391,-73.91112500000001,LA HACIENDA (ISLA MOCHA),,CHL
964048df,-38.33248055555555,-73.91747777777778,LOS CAZONES (ISLA MOCHA),,CHL
964047bd,-38.391975,-73.86924166666665,MATADERO (ISLA MOCHA),,CHL
9641f9c5,-37.55806944444444,-73.6387138888889,MILLONGUE,,CHL
9641ef7b,-37.723036111111114,-73.66187777777779,MORHUILLA,,CHL
9642024d,-37.45806944444445,-73.59144166666667,QUIAPO,,CHL
9641f071,-37.64238611111111,-73.66531111111112,SECTOR MINA COSTA,,CHL
9641f0a7,-37.600525000000005,-73.65914166666667,LEBU & PUERTO PESQUERO ARTESANAL DE LEBU & SECTOR VARADERO LEBU,,CHL
9641f8f1,-37.52757222222222,-73.59627222222221,VILLARICA (RANQUIL),,CHL
9641de89,-37.86445277777778,-73.54704722222222,PANGUE,,CHL
9669c1e1,-37.09730833333334,-73.15916111111112,CALETA LOTA BAJO,,CHL
9669ea73,-37.107102777777776,-73.15481944444446,COLCURA,,CHL
9669ea33,-37.14241944444444,-73.16936666666668,CHIVILINGO,,CHL
9669c193,-37.080536111111115,-73.16619722222222,EL BLANCO,,CHL
9669c197,-37.075433333333336,-73.16229722222222,EL MORRO (LOTA) & LA CONCHILLA,,CHL
9669c1bd,-37.07316388888889,-73.15536944444445,PUEBLO HUNDIDO,,CHL
9669ea0b,-37.10373888888889,-73.15998888888889,PUERTO NUEVO,,CHL
9669c1df,-37.10082222222222,-73.15749166666667,PUNTA ASTORGA,,CHL
96684ca3,-36.72166111111111,-72.98648055555556,CERRO VERDE,,CHL
96684c89,-36.70280555555556,-72.9771138888889,LA CATA,,CHL
96684c91,-36.71080555555556,-72.97745277777778,LIRQUÉN,,CHL
96684ca9,-36.73299444444445,-72.99239444444444,PENCO,,CHL
96684b51,-36.73761666666667,-73.00273888888889,PLAYA NEGRA,,CHL
9669cbb9,-36.82535555555556,-73.15208333333334,BOCA SUR             ,,CHL
966837d5,-36.628797222222225,-73.09119166666666,CANDELARIA,,CHL
966837d7,-36.62481388888889,-73.09337222222221,CANTERA,,CHL
96683571,-36.726911111111114,-73.105375,EL MORRO (TALCAHUANO),,CHL
96683437,-36.69670555555555,-73.14100833333335,EL SOLDADO,,CHL
96683505,-36.7278,-73.12786388888888,INFIERNILLO,,CHL
96683441,-36.706944444444446,-73.15544444444446,LOS LOBOS,,CHL
966837db,-36.621697222222224,-73.09665277777778,PUERTO INLGÉS,,CHL
96683599,-36.71098611111111,-73.1094,PUERTO TALCAHUANO,,CHL
96683561,-36.73627777777778,-73.09272777777777,ROCUANT,,CHL
96683501,-36.725608333333334,-73.1325,SAN VICENTE,,CHL
966835a3,-36.71112777777778,-73.11381388888888,"TALCAHUANO, SECTOR LA POZA",,CHL
96683629,-36.63901111111111,-73.09261666666666,TUMBES,,CHL
964021d1,-38.467197222222225,-73.52041388888888,CASA DE PIEDRA (TIRÚA SUR 7),,CHL
964021b1,-38.44611944444444,-73.52188611111112,COMILLAHUE (TIRÚA SUR 6),,CHL
964027ab,-38.34828888888889,-73.508125,LAS MISIONES (TIRÚA SUR 1),,CHL
96402111,-38.423202777777774,-73.52509166666667,LOS CHILCOS (TIRÚA SUR 5),,CHL
9640271d,-38.365808333333334,-73.50667777777778,PUENTE DE TIERRA (TIRÚA SUR 2),,CHL
964029bf,-38.248694444444446,-73.49005277777778,QUIDICO,,CHL
964027a1,-38.3449,-73.49228055555555,TIRÚA,,CHL
964026c5,-38.382216666666665,-73.52415277777777,TRANICURA A (TIRÚA SUR 3),,CHL
96402133,-38.39845,-73.5271638888889,TRANICURA B (TIRÚA SUR 4),,CHL
96684f47,-36.593113888888894,-72.97799166666667,COCHOLGUE CALETA GRANDE,,CHL
96684f39,-36.59708333333334,-72.97695833333333,COCHOLGUE CALETA CHICA,,CHL
966845b3,-36.52983888888889,-72.95852777777777,COLIUMO,,CHL
96684575,-36.54764444444445,-72.94443333333334,DICHATO,,CHL
96684f1f,-36.61133888888889,-72.96965833333334,LOS BAGRES,,CHL
96684f21,-36.61101388888889,-72.97407777777778,MONTECRISTO,,CHL
96685cc5,-36.44429444444444,-72.88598888888889,PUREMA,,CHL
96684ef1,-36.62435,-72.95735,QUICHIUTO,,CHL
96684ee5,-36.61906666666667,-72.95931666666667,"TOMÉ, MUELLE PESQUERO ARTESANAL",,CHL
96684513,-36.54120833333333,-72.93313333333334,"VILLARRICA, DICHATO",,CHL
96686709,-36.35610277777778,-72.84875,BOCA ITATA,,CHL
966aaba9,-38.745555555555555,-73.41166666666668,NEHUENTUE,,CHL
961554f5,-38.82222222222222,-73.39500000000001,BOCA BUDI,,CHL
961551f1,-38.85722222222223,-73.29055555555556,NAHUELHUAPI,,CHL
96154fc9,-38.89527777777778,-73.25527777777778,PTO. DOMINGUEZ,,CHL
961554c5,-38.797777777777775,-73.40138888888889,PTO. SAAVEDRA,,CHL
96155213,-38.83055555555555,-73.29222222222222,ROMOPULLI,,CHL
961571d7,-39.24666666666667,-73.22,LA BARRA,,CHL
96157611,-39.388888888888886,-73.19583333333334,LOS PINOS ,,CHL
96157625,-39.397777777777776,-73.21472222222222,QUEULE,,CHL
9615f653,-39.87469166666667,-73.42629444444445,AMARGOS,,CHL
963e04bb,-39.95339722222222,-73.5768361111111,CHAIUIN,,CHL
9615f7af,-39.88684444444444,-73.42871666666667,CORRAL BAJO,,CHL
9615f0d5,-39.873066666666666,-73.36878888888889,ISLA DEL REY SECTOR CARBONEROS,,CHL
9615f0c9,-39.888283333333334,-73.36231666666666,ISLA DEL REY SECTOR CENTRO,,CHL
9615f09d,-39.904516666666666,-73.33730555555555,ISLA DEL REY SECTOR LAS COLORADAS,,CHL
963e1d1f,-39.90675833333333,-73.50871111111111,HUAPE,,CHL
963e0ffb,-39.96275555555556,-73.66297777777778,HUIRO,,CHL
9615f7a1,-39.89446111111111,-73.41961666666667,LA AGUADA,,CHL
963e1d99,-39.88146388888889,-73.48795,LOS LILES,,CHL
9615f73d,-39.88845555555555,-73.38999722222223,MANCERA,,CHL
9615f7a5,-39.89058333333333,-73.42392222222223,MUELLE PESQUERA BLUMAR,,CHL
9615f993,-39.93760277777778,-73.38629722222223,SAN JUAN,,CHL
963de329,-40.15636666666666,-73.66236666666667,HUICOLLA,,CHL
963de387,-40.198880555555554,-73.70759166666667,LAMEHUAPI,,CHL
963e08bb,-40.044775,-73.66827500000001,PLAYA COLUN,,CHL
963e07dd,-40.08655555555555,-73.64259444444446,RIO COLUN,,CHL
96159b15,-39.51608888888889,-73.25027777777778,CHAN CHAN,,CHL
96159cd9,-39.45558055555556,-73.26297222222222,MAIQUILLAHUE,,CHL
96159dbb,-39.43581111111111,-73.21554444444445,MEHUIN,,CHL
96159db3,-39.444766666666666,-73.21621666666667,MEHUIN BAJO,,CHL
96159c4d,-39.44811111111111,-73.21621666666667,MISSISSIPI,,CHL
96157629,-39.4041,-73.22119166666667,PLAYA CHEUQUE,,CHL
96157633,-39.39468611111111,-73.22824444444444,PLAYA PICHICULLIN,,CHL
9615edd7,-39.809491666666666,-73.23576388888888,AVENIDA ESPAÑA 513,,CHL
96158b8d,-39.69342222222222,-73.38210833333332,BONIFACIO,,CHL
9615f48d,-39.78641388888889,-73.39066111111111,CALFUCO,,CHL
9615ee3f,-39.83530555555556,-73.25835555555555,CAMANCHACA,,CHL
96158b3f,-39.73918333333334,-73.39495000000001,CURIÑANCO,,CHL
9615f721,-39.87502777777778,-73.39424166666667,EL PIOJO,,CHL
9615f45f,-39.79700833333333,-73.39639722222223,LA MISION,,CHL
9615f6d7,-39.870780555555555,-73.38029999999999,LAS CANTERAS,,CHL
9615f45d,-39.804824999999994,-73.39926666666668,LONCOYEN,,CHL
9615f697,-39.84536944444445,-73.39685555555556,LOS MOLINOS,,CHL
9615ee6b,-39.82879166666667,-73.2512,MUELLE MORA & MORA,,CHL
96158c1f,-39.66959722222222,-73.35038888888889,PILOLCURA,,CHL
9615f6d5,-39.86875555555556,-73.37673888888888,PINO HUACHO,,CHL
9615f425,-39.828136111111114,-73.40443333333334,PLAYA ROSADA,,CHL
9615f69d,-39.83703333333334,-73.40235555555556,SAN IGNACIO,,CHL
9615ee15,-39.83314722222222,-73.25509722222222,LA ISLA & LAS MUÑECAS & MUELLE CALYPSO & MUELLE CARTAGENA & MUELLE ETCHEPARE (VALDIVIA) & SANTA ISABEL & SHIVAR,,CHL
963e1a03,-39.873466666666666,-73.64333611111111,TERMINAL PESQUERO DE NIEBLA,,CHL
9615f12f,-39.86356388888889,-73.36449999999999,TRES ESPINOS,,CHL
962292a9,-41.86691666666667,-73.83155555555555,ANCUD,,CHL
9622ef0f,-41.845444444444446,-73.9991388888889,CALLE,,CHL
96229abd,-41.823055555555555,-73.63830555555556,CAULÍN,,CHL
96228333,-41.826972222222224,-73.52647222222222,CHACAO,,CHL
9622e93f,-41.792425,-73.95981944444445,CHAUMAN,,CHL
96225885,-42.049213888888886,-73.97377777777778,CHEPU,,CHL
9622f9ef,-41.98832222222222,-74.04383888888889,DUHATAO,,CHL
9622ec5b,-41.82658333333334,-73.89850000000001,EL DIQUE,,CHL
9622eb8d,-41.794666666666664,-73.90869444444445,FARO CORONA,,CHL
96228d5b,-41.87380555555555,-73.82919444444444,FÁTIMA,,CHL
9622e61d,-41.80925,-74.03575,GUABÚN,,CHL
962283d5,-41.89619444444445,-73.516,COÑIMO & HUEIHUE,,CHL
9622813f,-41.92597222222222,-73.5375,HUELDEN,,CHL
962291e5,-41.84805555555556,-73.73438888888889,HUICHA,,CHL
962281a1,-41.92202777777778,-73.50947222222223,LAMECURA,,CHL
962280b7,-41.965500000000006,-73.5483611111111,LINAO,,CHL
9622e58f,-41.84652777777778,-74.03594444444444,LOS CHONOS,,CHL
962283c9,-41.88227777777778,-73.52194444444444,MANAO,,CHL
9622ef91,-41.86563888888889,-74.0125,MAR BRAVA,,CHL
9622eea1,-41.82252777777778,-73.93947222222222,NAL,,CHL
9622edf1,-41.87544444444445,-73.92094444444444,PILLUCO,,CHL
9622fa85,-41.92919444444444,-74.03655555555555,PIÑIHUIL,,CHL
96228d71,-41.87386111111111,-73.80088888888889,PUDETO,,CHL
962282ff,-41.85819444444444,-73.50786111111111,PULELO,,CHL
9622ef29,-41.81955833333333,-73.98733333333334,PULLIHUE,,CHL
9622f083,-41.944,-74.02955555555556,PUMILLAHUE,,CHL
962281f5,-41.899,-73.48469444444444,PUNTA CHILEN,,CHL
96228c25,-41.90811111111111,-73.75933333333333,PUPELDE,,CHL
9622ee6f,-41.85797222222222,-73.95347222222223,QUETALMAHUE,,CHL
9622efb3,-41.86302777777778,-73.98544444444444,QUILO,,CHL
9622ec61,-41.81488888888889,-73.88926666666667,YUSTE,,CHL
96187005,-41.77911111111111,-73.28741666666666,AGUANTAO,,CHL
96184407,-41.67272222222222,-72.99052777777779,ALFARO,,CHL
961867cd,-41.77640833333333,-73.12990555555555,CALBUCO - LA VEGA,,CHL
961870a7,-41.79738888888889,-73.35872222222221,CHAYAHUE,,CHL
96184421,-41.66536111111111,-72.96616666666667,CHOLGUE,,CHL
96185df3,-41.816750000000006,-73.07727777777778,CHOPE,,CHL
961870db,-41.768875,-73.35358055555555,COLACO,,CHL
9618688f,-41.752580555555554,-73.1413888888889,EL ROSARIO,,CHL
9618674f,-41.83111111111111,-73.1033611111111,ISLA CHIDHUAPI,,CHL
9618449d,-41.71511111111111,-72.99058333333333,ISLA GUAR,,CHL
96187a0d,-41.80345833333333,-73.34733888888888,ISLA HUAPI-ABTAO,,CHL
96185dc9,-41.81475,-73.04713888888888,CHAUQUEAR & ISLA PULUQUI,,CHL
9618581b,-41.872952777777776,-72.90947222222223,ISLA QUEULLÍN,,CHL
9618610d,-41.8795,-73.15525000000001,ISLA TABÓN,,CHL
96185ef1,-41.85231111111111,-73.0299888888889,LA POZA DE LLAICHA,,CHL
96185d69,-41.775527777777775,-73.07022222222221,MACHIL,,CHL
961877df,-41.79294444444445,-73.45963888888889,PARGUA,,CHL
96185c11,-41.81113888888888,-73.00727777777777,POLLOLLO,,CHL
961865e3,-41.785975,-73.18599166666667,PUERTO SAN JOSÉ,,CHL
961842f7,-41.71963888888889,-73.05766666666666,SAN AGUSTÍN,,CHL
96186f83,-41.774,-73.23337777777778,SAN ANTONIO CALBUCO,,CHL
9618687f,-41.76398888888889,-73.13021388888889,SAN RAFAEL,,CHL
961842e9,-41.73180555555556,-73.05591666666666,SAN RAMÓN,,CHL
96221759,-42.473333333333336,-73.76244444444444,CASTRO,,CHL
9621ff77,-42.60244444444445,-73.51669444444444,CHELIN,,CHL
9621ffaf,-42.61944444444445,-73.50141666666667,QUEHUI,,CHL
962204a3,-42.52578055555555,-73.63377777777778,RILAN,,CHL
961f069f,-43.02269722222222,-72.83147222222222,AUCHEMÓ,,CHL
9618d9eb,-42.309549999999994,-72.78559444444444,AYACARA,,CHL
9618d5fb,-42.402430555555554,-72.71872777777779,BUILL,,CHL
961920b9,-42.222550000000005,-72.68961111111112,CALETA POYO,,CHL
961f2ea1,-42.56435277777778,-72.82518333333333,CASA DE PESCA,,CHL
961f1d5b,-42.91218333333333,-72.71628611111112,CHAITÉN,,CHL
961f23bd,-42.74055833333333,-72.83627777777777,CHANA,,CHL
961f37ff,-42.6755,-73.08302777777777,CHUIT,,CHL
961f36ff,-42.63075,-73.04011111111112,CHULIN,,CHL
961f2c9f,-42.50763888888889,-72.80638055555555,CHUMELDÉN,,CHL
9618d8c9,-42.25002222222222,-72.73874166666667,HUEQUI,,CHL
961f2a5f,-42.514922222222225,-72.73405833333334,LOYOLA,,CHL
961f38f1,-42.71988888888889,-73.05664444444444,NAYAHUÉ,,CHL
961f25cb,-42.67574722222222,-72.82528611111111,PUMALÍN,,CHL
9618d6f5,-42.37798333333333,-72.76081666666667,RELDEHUE,,CHL
961f3c69,-42.75227777777778,-72.95811111111111,TALCÁN,,CHL
96221e19,-42.61863888888889,-73.77019444444444,CHONCHI,,CHL
9622327f,-42.53188055555555,-74.16850833333334,CUCAO,,CHL
96221ea3,-42.56831666666667,-73.75865,RAUCO,,CHL
9621fa75,-42.70648888888889,-73.65315555555556,TERAO,,CHL
9621f741,-42.67406388888889,-73.67276111111111,TEUPA,,CHL
961997df,-41.619194444444446,-72.3261111111111,CASCAJAL,,CHL
96199547,-41.49516666666667,-72.31061111111111,COCHAMÓ,,CHL
9619a4a1,-41.67322222222222,-72.42902777777778,SOTOMÓ,,CHL
96220f77,-42.44080555555555,-73.60438888888888,CURACO DE VELEZ,,CHL
962208f9,-42.40711111111111,-73.51694444444445,PALQUI,,CHL
962211ff,-42.38194444444444,-73.65477777777778,DALCAHUE,,CHL
9618a3fd,-42.33368055555556,-73.37060555555554,TENAÚN,,CHL
963d3e15,-41.11516666666667,-73.91581944444445,PUNTA CAPITANES,,CHL
9618f8ad,-41.87738888888889,-72.81016666666666,AULEN,,CHL
9619ad19,-41.72652777777778,-72.68344444444445,CAICURA,,CHL
9618fc77,-41.97430555555556,-72.80024999999999,CHAUCHIL,,CHL
96191659,-42.08765277777778,-72.46102777777779,CHOLGO,,CHL
961854c7,-41.80038888888889,-72.72427777777779,CONTAO,,CHL
9618e2ab,-42.01225,-72.71177777777778,CUBERO,,CHL
96191cb9,-42.011916666666664,-72.63452777777779,EL MANZANO (HUALAIHUÉ),,CHL
961902c9,-41.999158333333334,-72.68405555555556,HUALAIHUÉ ESTERO,,CHL
961855c5,-41.84229166666667,-72.79024166666666,LA POZA,,CHL
96191bc1,-42.05163888888889,-72.5881111111111,LLANCHID,,CHL
9618fcf9,-41.98269444444445,-72.7645,LLEGUIMAN,,CHL
96191c0b,-42.05533333333333,-72.61555555555555,LOS TOROS,,CHL
9619ac8b,-41.75595833333333,-72.66388611111111,MAÑIHUEICO,,CHL
96193d9b,-42.13678055555555,-72.46367777777778,PICHANCO,,CHL
96191b41,-42.00625,-72.5958611111111,PICHICOLO,,CHL
9619ac4f,-41.73916666666667,-72.64736111111112,PUELCHE,,CHL
9619188f,-42.13241111111111,-72.575425,PUERTO BONITO,,CHL
96191d41,-42.02488888888889,-72.68752777777779,PUERTO HUALAIHUÉ,,CHL
9618f94f,-41.93705555555555,-72.81494444444444,QUETÉN,,CHL
96193ce1,-42.16885555555555,-72.49431944444444,QUIACA,,CHL
961855f9,-41.866372222222225,-72.79383055555556,QUILDACO,,CHL
96190fd5,-41.97206666666667,-72.473825,RÍO NEGRO - HORNOPIRÉN,,CHL
9618f907,-41.92066666666666,-72.84625,ROLECHA,,CHL
9618f8f7,-41.90205555555555,-72.84922222222222,TENTELHUÉ,,CHL
963d4aa9,-41.39552777777778,-73.83966666666666,ESTAQUILLA,,CHL
963d4a05,-41.32833333333333,-73.83194444444445,HUAHUAR,,CHL
96229a2d,-41.763777777777776,-73.61216666666667,ASTILLERO,,CHL
962296e1,-41.74813888888889,-73.70533333333334,CARELMAPU,,CHL
9622a397,-41.61821111111111,-73.59324722222222,CARIQUILDA,,CHL
9622a4c5,-41.58198055555556,-73.63638333333334,CHANHUÉ,,CHL
9622a387,-41.605361111111115,-73.59813888888888,LA PASADA,,CHL
9622a3f3,-41.60505555555556,-73.58194444444445,LEPIHUÉ,,CHL
9622a6ad,-41.593333333333334,-73.55305555555556,LOLCURA,,CHL
9622a39b,-41.61556111111111,-73.59664166666666,MAULLÍN & MUELLE TOLEDO,,CHL
9622badd,-41.56502777777777,-73.6756388888889,QUENUIR,,CHL
9622bcdb,-41.64244444444444,-73.66766666666668,SAN PEDRO DE NOLASCO,,CHL
96183b93,-41.48591666666667,-72.97702777777778,ANAHUAC,,CHL
96183bbf,-41.48694444444445,-72.96388888888889,ANGELMÓ,,CHL
961841ed,-41.66511111111111,-73.06663888888889,BAHÍA HUELMO,,CHL
9618401f,-41.62072222222222,-73.08319444444444,BAHÍA ILQUE,,CHL
9619b301,-41.65275,-72.6661388888889,CALETA GUTIÉRREZ,,CHL
9619b375,-41.631055555555555,-72.66619444444446,CHAICAS,,CHL
96183133,-41.48305555555556,-72.83916666666666,CHAMIZA,,CHL
96183c27,-41.51386111111111,-73.02666666666667,CHINQUIHUE,,CHL
961830d3,-41.488455555555554,-72.86308888888888,COIHUÍN,,CHL
96183f51,-41.58195277777778,-73.00428333333333,ISLA MAILLEN,,CHL
9619ad8b,-41.692166666666665,-72.64211111111112,LA ARENA,,CHL
9619b4bd,-41.60698611111111,-72.69120555555556,LENCA,,CHL
9619b4d3,-41.59001944444445,-72.70494722222223,METRI,,CHL
9619b307,-41.64624444444444,-72.66779166666667,MORRO CHAICAS,,CHL
96183e61,-41.53353611111111,-73.04284444444444,PANITAO BAJO,,CHL
96183a69,-41.474916666666665,-72.92161111111112,PICHIPELLUCO,,CHL
96183437,-41.51235,-72.78347777777778,PIEDRA AZUL,,CHL
96183bb7,-41.484027777777776,-72.95327777777779,TENGLO,,CHL
9619b25d,-41.67236944444444,-72.65599722222223,YERBAS BUENAS,,CHL
9619ea87,-41.45011111111111,-72.32313888888889,ROLLIZO,,CHL
9621f63f,-42.638083333333334,-73.72175,CHULCUY,,CHL
96221d6b,-42.59913888888889,-73.67927777777778,PUQUELDÓN,,CHL
963d0cd7,-40.891,-73.85058333333333,MANQUEMAPU,,CHL
963d12a3,-40.94079444444444,-73.86434166666666,SAN PEDRO,,CHL
9621d8c9,-42.972972222222225,-73.49305555555556,ALQUI,,CHL
961f61b3,-42.92598888888889,-73.43487777777779,ISLA ACUI,,CHL
9621def1,-42.944,-73.52755555555555,MAPUE,,CHL
9621e00f,-42.88422222222222,-73.47936111111112,QUEILEN,,CHL
9621de49,-42.91697222222222,-73.52077777777778,SAN JOSÉ DE TRANQUI,,CHL
9621d9c1,-43.03513888888889,-73.53422222222223,AUCHAC,,CHL
9621e8e3,-42.872638888888886,-73.69683333333333,COMPU,,CHL
9621da23,-43.03575,-73.56813888888888,CURANUÉ,,CHL
9621d0ad,-43.06258333333333,-73.56252777777777,HUILDAD,,CHL
9621d451,-43.15645,-73.52299444444445,ISLA CAILÍN,,CHL
9621d197,-43.120847222222224,-73.62294722222221,QUELLÓN,,CHL
96205155,-43.36255555555556,-74.12294444444444,RÍO INIO,,CHL
9621dcff,-42.94705555555555,-73.6086111111111,SAN ANTONIO DE CHADMO,,CHL
9621da7b,-43.05294444444444,-73.59594444444444,SANTA ROSA,,CHL
9621cf03,-43.11225,-73.71052777777778,YALDAD,,CHL
9618bb67,-42.32919444444445,-73.24972222222222,AÑIHUÉ,,CHL
96188249,-42.06327777777778,-73.42808333333333,AUCHO,,CHL
9618be5f,-42.264944444444446,-73.15486111111112,AULIN,,CHL
96189d13,-42.147083333333335,-73.43680555555557,CAUCAHUÉ,,CHL
9618bd23,-42.27802777777778,-73.25405555555555,CHEÑIAO,,CHL
9618b77f,-42.38505,-73.13776666666668,ISLA TAC,,CHL
96227f6f,-42.022305555555555,-73.47977777777778,LLIUCO,,CHL
9618bcaf,-42.31583333333333,-73.2685,MECHUQUE,,CHL
961882c7,-42.10795555555555,-73.43672777777778,PUERTO HUITE,,CHL
962277dd,-42.14505555555556,-73.47294444444445,QUEMCHI,,CHL
9618a213,-42.27275,-73.35105555555555,QUICAVÍ,,CHL
9618bf0d,-42.27280555555556,-73.11716666666666,SAN JOSÉ DE BUTACHAUQUES,,CHL
962207a1,-42.46888888888889,-73.49069444444444,ACHAO,,CHL
961f4c53,-42.59161111111111,-73.22619444444445,APIAO,,CHL
961f525d,-42.60469444444445,-73.30108333333332,ALAO,,CHL
9618b27d,-42.51102777777778,-73.26672222222223,CAGUACH,,CHL
961f5219,-42.626305555555554,-73.29822222222222,CHAULINEC,,CHL
9618af6d,-42.427499999999995,-73.34036111111111,ISLA MEULIN,,CHL
9618a7b7,-42.40102777777778,-73.42616666666667,LIN-LIN,,CHL
9618a801,-42.430861111111106,-73.46272222222223,LLINGUA,,CHL
9618aefb,-42.45713888888889,-73.33016666666666,QUENAC,,CHL
963d7555,-40.77588333333333,-73.84106666666666,CONDOR,,CHL
963d9f2f,-40.69847222222222,-73.80536111111111,HUELLELHUE,,CHL
963d90c9,-40.58075,-73.73694444444445,BAHÍA MANSA,,CHL
963deeb3,-40.35075555555556,-73.74384722222223,MILAGRO,,CHL
963d9481,-40.48218055555556,-73.749875,EL MANZANO,,CHL
963d9a01,-40.6045,-73.74383888888889,MAICOLPUÉ,,CHL
963d9117,-40.54529444444445,-73.71942777777778,PUCATRIHUE,,CHL
963d99ed,-40.623222222222225,-73.76308333333333,TRIL TRIL,,CHL
bd8cda75,-45.400669444444446,-72.70268333333334,"MUELLE AGUAS QUIETAS, PUERTO AYSÉN",,CHL
bd8c7d4d,-45.155,-73.50861111111111,"MUELLE ARTESANAL, CALETA ANDRADE",,CHL
bd8c62cd,-45.165277777777774,-73.52388888888889,"MUELLE ARTESANAL, PUERTO AGUIRRE",,CHL
bd8cde59,-45.46725,-72.82026944444443,"MUELLE FRIOSUR, PUERTO CHACABUCO",,CHL
bd8cde5f,-45.464869444444446,-72.824075,"MUELLE EMPORCHA, PUERTO CHACABUCO & MUELLE OXXEAN, PUERTO CHACABUCO",,CHL
bd8cda09,-45.41081388888889,-72.69328333333334,"MUELLE RÍO AYSÉN, PUERTO AYSÉN",,CHL
bdf563e5,-43.77583333333333,-72.95083333333334,"MUELLE ARTESANAL, PUERTO RAÚL MARÍN BALMACEDA",,CHL
bdf563e7,-43.77,-72.95222222222222,"MUELLE FISCAL, PUERTO RAÚL MARÍN BALMACEDA",,CHL
bdf4b001,-44.72444444444445,-72.68777777777778,MUELLE PUERTO CISNES & MUELLE PUERTO GALA,,CHL
bd8b66b5,-44.897777777777776,-73.30305555555556,MUELLE PUERTO GAVIOTA,,CHL
bdf4e37f,-44.32611111111112,-72.55833333333334,MUELLE PUERTO PUYUHUAPI,,CHL
bd8a9f01,-43.888888888888886,-73.86777777777777,"MUELLE ARTESANAL, REPOLLAL BAJO",,CHL
bd8aa171,-43.89555555555555,-73.74972222222222,"MUELLE CEMENTERIO, PUERTO MELINKA",,CHL
bd8aa17b,-43.899166666666666,-73.74722222222222,"MUELLE ARTESANAL, PUERTO MELINKA & MUELLE CONECTIVIDAD, PUERTO MELINKA",,CHL
bd8aa16f,-43.894444444444446,-73.74777777777778,"MUELLE ESTERO, PUERTO MELINKA",,CHL
bd8a9e2d,-43.85944444444445,-73.88527777777779,"MUELLE 1, REPOLLAL ALTO & MUELLE 2, REPOLLAL ALTO",,CHL
bd96dc4f,-47.803888888888885,-73.53694444444444,MUELLE TORTEL,,CHL
bc4eac7b,-54.93277777777777,-67.59861111111111,PUERTO WILLIAMS & TERMINAL PESQUERO PUERTO WILLIAMS,,CHL
bdb2eeeb,-53.39333333333333,-70.335,SANTA MARÍA,,CHL
bdb2f181,-53.30361111111111,-70.43555555555555,BAHÍA CHILOTA & TERMINAL PESQUERO PORVENIR,,CHL
bdafe821,-51.73027777777778,-72.51416666666667,MUELLE EPA,,CHL
bda29751,-49.13,-74.40833333333335,MUELLE PUERTO EDÉN,,CHL
bda29757,-49.126666666666665,-74.41388888888889,PUERTO EDÉN,,CHL
bdafc2a1,-51.73861111111111,-72.50333333333333,TERMINAL PESQUERO PUERTO NATALES,,CHL
bdb2831b,-53.40277777777778,-70.98583333333333,AGUA FRESCA,,CHL
bdad5fff,-53.6075,-70.93277777777779,BAHÍA MANSA (PUNTA ARENAS),,CHL
bdb26679,-53.096111111111114,-70.87472222222222,MUELLE ARTESANAL BARRANCO AMARILLO,,CHL
bdb26371,-53.16722222222222,-70.90833333333335,MUELLE ARTURO PRAT,,CHL
bdb2641f,-53.12694444444445,-70.85972222222222,MUELLE MARDONES,,CHL
bdb26421,-53.123333333333335,-70.8611111111111,PUNTA ARENAS (MUELLE ASMAR),,CHL
bdad601d,-53.59361111111112,-70.9375,PUNTA CARRERA,,CHL
bdad9007,-53.16277777777778,-71.53027777777778,MUELLE CRUCE CANAL FITZ ROY & RÍO CANELO,,CHL
